[{"city":"Mumbai","state":"Maharashtra","lat":19.076,"lon":72.8777,"temperature":34,"feels_like":37.1,"humidity":46,"pressure":1009,"condition":"Smoke","condition_id":711,"icon":"50d","icon_url":"https://openweathermap.org/img/wn/50d@2x.png","wind_speed":5.1,"wind_dir":300,"visibility":3500,"cloudiness":20,"rain_1h":0,"country":"IN","time":1774426758,"source":"OpenWeatherMap"},{"city":"Delhi","state":"Delhi","lat":28.6139,"lon":77.209,"temperature":31.1,"feels_like":30.1,"humidity":33,"pressure":1009,"condition":"Few clouds","condition_id":801,"icon":"02d","icon_url":"https://openweathermap.org/img/wn/02d@2x.png","wind_speed":3.6,"wind_dir":330,"visibility":6000,"cloudiness":20,"rain_1h":0,"country":"IN","time":1774426941,"source":"OpenWeatherMap"},{"city":"Bangalore","state":"Karnataka","lat":12.9716,"lon":77.5946,"temperature":32.2,"feels_like":31.8,"humidity":36,"pressure":1009,"condition":"Clear sky","condition_id":800,"icon":"01d","icon_url":"https://openweathermap.org/img/wn/01d@2x.png","wind_speed":7.2,"wind_dir":90,"visibility":8000,"cloudiness":2,"rain_1h":0,"country":"IN","time":1774427296,"source":"OpenWeatherMap"},{"city":"Chennai","state":"Tamil Nadu","lat":13.0827,"lon":80.2707,"temperature":32.2,"feels_like":39.2,"humidity":65,"pressure":1010,"condition":"Few clouds","condition_id":801,"icon":"02d","icon_url":"https://openweathermap.org/img/wn/02d@2x.png","wind_speed":4.6,"wind_dir":140,"visibility":6000,"cloudiness":20,"rain_1h":0,"country":"IN","time":1774427309,"source":"OpenWeatherMap"},{"city":"Kolkata","state":"West Bengal","lat":22.5726,"lon":88.3639,"temperature":33,"feels_like":35.9,"humidity":49,"pressure":1007,"condition":"Haze","condition_id":721,"icon":"50d","icon_url":"https://openweathermap.org/img/wn/50d@2x.png","wind_speed":3.6,"wind_dir":170,"visibility":4000,"cloudiness":20,"rain_1h":0,"country":"IN","time":1774426768,"source":"OpenWeatherMap"},{"city":"Hyderabad","state":"Telangana","lat":17.385,"lon":78.4867,"temperature":34.2,"feels_like":34.8,"humidity":36,"pressure":1008,"condition":"Scattered clouds","condition_id":802,"icon":"03d","icon_url":"https://openweathermap.org/img/wn/03d@2x.png","wind_speed":3.1,"wind_dir":150,"visibility":6000,"cloudiness":40,"rain_1h":0,"country":"IN","time":1774427105,"source":"OpenWeatherMap"},{"city":"Pune","state":"Maharashtra","lat":18.5204,"lon":73.8567,"temperature":37.8,"feels_like":38.2,"humidity":27,"pressure":1009,"condition":"Clear sky","condition_id":800,"icon":"01d","icon_url":"https://openweathermap.org/img/wn/01d@2x.png","wind_speed":0.5,"wind_dir":348,"visibility":10000,"cloudiness":0,"rain_1h":0,"country":"IN","time":1774427354,"source":"OpenWeatherMap"},{"city":"Ahmedabad","state":"Gujarat","lat":23.0225,"lon":72.5714,"temperature":32,"feels_like":31,"humidity":31,"pressure":1009,"condition":"Smoke","condition_id":711,"icon":"50d","icon_url":"https://openweathermap.org/img/wn/50d@2x.png","wind_speed":2.1,"wind_dir":270,"visibility":4000,"cloudiness":40,"rain_1h":0,"country":"IN","time":1774427354,"source":"OpenWeatherMap"},{"city":"Jaipur","state":"Rajasthan","lat":26.9124,"lon":75.7873,"temperature":31.7,"feels_like":29.8,"humidity":22,"pressure":1009,"condition":"Few clouds","condition_id":801,"icon":"02d","icon_url":"https://openweathermap.org/img/wn/02d@2x.png","wind_speed":3.1,"wind_dir":240,"visibility":6000,"cloudiness":23,"rain_1h":0,"country":"IN","time":1774427205,"source":"OpenWeatherMap"},{"city":"Lucknow","state":"Uttar Pradesh","lat":26.8467,"lon":80.9462,"temperature":32.1,"feels_like":30.4,"humidity":25,"pressure":1007,"condition":"Haze","condition_id":721,"icon":"50d","icon_url":"https://openweathermap.org/img/wn/50d@2x.png","wind_speed":5.1,"wind_dir":280,"visibility":5000,"cloudiness":3,"rain_1h":0,"country":"IN","time":1774427163,"source":"OpenWeatherMap"},{"city":"Bhopal","state":"Madhya Pradesh","lat":23.2599,"lon":77.4126,"temperature":34.5,"feels_like":32.2,"humidity":17,"pressure":1009,"condition":"Scattered clouds","condition_id":802,"icon":"03d","icon_url":"https://openweathermap.org/img/wn/03d@2x.png","wind_speed":2.3,"wind_dir":292,"visibility":10000,"cloudiness":41,"rain_1h":0,"country":"IN","time":1774427357,"source":"OpenWeatherMap"},{"city":"Patna","state":"Bihar","lat":25.5941,"lon":85.1376,"temperature":33,"feels_like":31,"humidity":21,"pressure":1007,"condition":"Few clouds","condition_id":801,"icon":"02d","icon_url":"https://openweathermap.org/img/wn/02d@2x.png","wind_speed":6.2,"wind_dir":290,"visibility":6000,"cloudiness":20,"rain_1h":0,"country":"IN","time":1774427213,"source":"OpenWeatherMap"},{"city":"Kochi","state":"Kerala","lat":9.9312,"lon":76.2673,"temperature":28.8,"feels_like":33.1,"humidity":74,"pressure":1008,"condition":"Few clouds","condition_id":801,"icon":"02d","icon_url":"https://openweathermap.org/img/wn/02d@2x.png","wind_speed":1.8,"wind_dir":30,"visibility":10000,"cloudiness":15,"rain_1h":0,"country":"IN","time":1774427123,"source":"OpenWeatherMap"},{"city":"Nagpur","state":"Maharashtra","lat":21.1458,"lon":79.0882,"temperature":37,"feels_like":35.4,"humidity":20,"pressure":1007,"condition":"Haze","condition_id":721,"icon":"50d","icon_url":"https://openweathermap.org/img/wn/50d@2x.png","wind_speed":1,"wind_dir":240,"visibility":5000,"cloudiness":20,"rain_1h":0,"country":"IN","time":1774427123,"source":"OpenWeatherMap"},{"city":"Visakhapatnam","state":"Andhra Pradesh","lat":17.6868,"lon":83.2185,"temperature":31.8,"feels_like":36,"humidity":58,"pressure":1009,"condition":"Haze","condition_id":721,"icon":"50d","icon_url":"https://openweathermap.org/img/wn/50d@2x.png","wind_speed":5.1,"wind_dir":180,"visibility":4500,"cloudiness":20,"rain_1h":0,"country":"IN","time":1774427176,"source":"OpenWeatherMap"},{"city":"Bhubaneswar","state":"Odisha","lat":20.2961,"lon":85.8245,"temperature":33,"feels_like":37.8,"humidity":55,"pressure":1008,"condition":"Haze","condition_id":721,"icon":"50d","icon_url":"https://openweathermap.org/img/wn/50d@2x.png","wind_speed":4.1,"wind_dir":170,"visibility":5000,"cloudiness":40,"rain_1h":0,"country":"IN","time":1774427125,"source":"OpenWeatherMap"},{"city":"Guwahati","state":"Assam","lat":26.1445,"lon":91.7362,"temperature":27,"feels_like":28.5,"humidity":65,"pressure":1009,"condition":"Haze","condition_id":721,"icon":"50d","icon_url":"https://openweathermap.org/img/wn/50d@2x.png","wind_speed":1.5,"wind_dir":300,"visibility":3000,"cloudiness":40,"rain_1h":0,"country":"IN","time":1774427125,"source":"OpenWeatherMap"},{"city":"Srinagar","state":"J&K","lat":34.0837,"lon":74.7973,"temperature":18.8,"feels_like":17.2,"humidity":19,"pressure":1013,"condition":"Overcast clouds","condition_id":804,"icon":"04d","icon_url":"https://openweathermap.org/img/wn/04d@2x.png","wind_speed":1.1,"wind_dir":267,"visibility":10000,"cloudiness":91,"rain_1h":0,"country":"IN","time":1774427307,"source":"OpenWeatherMap"},{"city":"Dehradun","state":"Uttarakhand","lat":30.3165,"lon":78.0322,"temperature":28.5,"feels_like":27.3,"humidity":25,"pressure":1009,"condition":"Broken clouds","condition_id":803,"icon":"04d","icon_url":"https://openweathermap.org/img/wn/04d@2x.png","wind_speed":3.8,"wind_dir":258,"visibility":10000,"cloudiness":75,"rain_1h":0,"country":"IN","time":1774427361,"source":"OpenWeatherMap"},{"city":"Shimla","state":"Himachal Pradesh","lat":31.1048,"lon":77.1734,"temperature":18.5,"feels_like":17.2,"humidity":30,"pressure":1011,"condition":"Few clouds","condition_id":801,"icon":"02d","icon_url":"https://openweathermap.org/img/wn/02d@2x.png","wind_speed":2.9,"wind_dir":284,"visibility":10000,"cloudiness":19,"rain_1h":0,"country":"IN","time":1774427127,"source":"OpenWeatherMap"},{"city":"Thiruvananthapuram","state":"Kerala","lat":8.5241,"lon":76.9366,"temperature":32.9,"feels_like":36.6,"humidity":52,"pressure":1008,"condition":"Few clouds","condition_id":801,"icon":"02d","icon_url":"https://openweathermap.org/img/wn/02d@2x.png","wind_speed":4.1,"wind_dir":240,"visibility":6000,"cloudiness":20,"rain_1h":0,"country":"IN","time":1774427183,"source":"OpenWeatherMap"},{"city":"Raipur","state":"Chhattisgarh","lat":21.2514,"lon":81.6296,"temperature":35.1,"feels_like":35,"humidity":31,"pressure":1007,"condition":"Haze","condition_id":721,"icon":"50d","icon_url":"https://openweathermap.org/img/wn/50d@2x.png","wind_speed":4.1,"wind_dir":220,"visibility":4000,"cloudiness":40,"rain_1h":0,"country":"IN","time":1774427363,"source":"OpenWeatherMap"},{"city":"Ranchi","state":"Jharkhand","lat":23.3441,"lon":85.3096,"temperature":30,"feels_like":28.7,"humidity":30,"pressure":1009,"condition":"Haze","condition_id":721,"icon":"50d","icon_url":"https://openweathermap.org/img/wn/50d@2x.png","wind_speed":2.6,"wind_dir":290,"visibility":4000,"cloudiness":20,"rain_1h":0,"country":"IN","time":1774427363,"source":"OpenWeatherMap"},{"city":"Chandigarh","state":"Punjab/Haryana","lat":30.7333,"lon":76.7794,"temperature":31.9,"feels_like":29.7,"humidity":15,"pressure":1009,"condition":"Scattered clouds","condition_id":802,"icon":"03d","icon_url":"https://openweathermap.org/img/wn/03d@2x.png","wind_speed":7,"wind_dir":312,"visibility":10000,"cloudiness":38,"rain_1h":0,"country":"IN","time":1774427364,"source":"OpenWeatherMap"},{"city":"Amritsar","state":"Punjab","lat":31.634,"lon":74.8723,"temperature":28,"feels_like":27.9,"humidity":44,"pressure":1009,"condition":"Haze","condition_id":721,"icon":"50d","icon_url":"https://openweathermap.org/img/wn/50d@2x.png","wind_speed":3.6,"wind_dir":270,"visibility":5000,"cloudiness":20,"rain_1h":0,"country":"IN","time":1774426830,"source":"OpenWeatherMap"},{"city":"Port Blair","state":"Andaman & Nicobar","lat":11.6234,"lon":92.7265,"temperature":31.9,"feels_like":33.7,"humidity":48,"pressure":1009,"condition":"Few clouds","condition_id":801,"icon":"02d","icon_url":"https://openweathermap.org/img/wn/02d@2x.png","wind_speed":4.6,"wind_dir":70,"visibility":6000,"cloudiness":20,"rain_1h":0,"country":"IN","time":1774427356,"source":"OpenWeatherMap"},{"city":"Imphal","state":"Manipur","lat":24.817,"lon":93.9368,"temperature":26,"feels_like":26,"humidity":47,"pressure":1010,"condition":"Scattered clouds","condition_id":802,"icon":"03d","icon_url":"https://openweathermap.org/img/wn/03d@2x.png","wind_speed":2.6,"wind_dir":250,"visibility":6000,"cloudiness":40,"rain_1h":0,"country":"IN","time":1774427187,"source":"OpenWeatherMap"},{"city":"Gangtok","state":"Sikkim","lat":27.3314,"lon":88.6138,"temperature":20.2,"feels_like":19.8,"humidity":56,"pressure":1011,"condition":"Broken clouds","condition_id":803,"icon":"04d","icon_url":"https://openweathermap.org/img/wn/04d@2x.png","wind_speed":2.5,"wind_dir":205,"visibility":10000,"cloudiness":54,"rain_1h":0,"country":"IN","time":1774427367,"source":"OpenWeatherMap"}]